Title,Latitude,Longitude
Koti,60.16109720074054,24.862679969384097
LYK,60.15818517332558,24.862269969383938
Mäkelänrinne,60.20010729611278,24.947816494516776
Pirkkola,60.232305389474874,24.910754671240714
Itäkeskus,60.212989189403466,25.076083069386907
Warrior,60.22392751534456,24.8071201405514
